$GPGGA,073549.45,3803.2925444,N,10613.2503229,E,4,22,0.7,1118.3460,M,-41.632,M,00,0004*48
$GPGGA,073549.50,3803.2925437,N,10613.2503282,E,4,22,0.7,1118.3457,M,-41.632,M,00,0004*4D
$GPGGA,073549.55,3803.2925432,N,10613.2503363,E,4,22,0.7,1118.3439,M,-41.632,M,00,0004*4B
$GPGGA,073549.60,3803.2925431,N,10613.2503438,E,4,22,0.7,1118.3458,M,-41.632,M,00,0004*40
$GPGGA,073549.65,3803.2925431,N,10613.2503539,E,4,22,0.7,1118.3411,M,-41.632,M,00,0004*48
$GPGGA,073549.70,3803.2925428,N,10613.2503652,E,4,22,0.7,1118.3436,M,-41.632,M,00,0004*4F
$GPGGA,073549.75,3803.2925427,N,10613.2503778,E,4,22,0.7,1118.3434,M,-41.632,M,00,0004*4E
$GPGGA,073549.80,3803.2925420,N,10613.2503914,E,4,22,0.7,1118.3434,M,-41.632,M,00,0004*47
$GPGGA,073549.85,3803.2925409,N,10613.2504049,E,4,22,0.7,1118.3430,M,-41.632,M,00,0004*4B
$GPGGA,073549.90,3803.2925408,N,10613.2504209,E,4,22,0.7,1118.3391,M,-41.632,M,00,0004*44
$GPGGA,073549.95,3803.2925417,N,10613.2504395,E,4,22,0.7,1118.3326,M,-41.632,M,00,0004*x
$GPGGA,073550.00,3803.2925408,N,10613.2504583,E,4,22,0.7,1118.3331,M,-41.632,M,01,0004*4B
$GPGGA,073550.05,3803.2925399,N,10613.2504775,E,4,22,0.7,1118.3345,M,-41.632,M,01,0004*49
$GPGGA,073550.10,3803.2925377,N,10613.2504970,E,4,22,0.7,1118.3316,M,-41.632,M,00,0004*41
$GPGGA,073550.15,3803.2925371,N,10613.2505198,E,4,22,0.7,1118.3307,M,-41.632,M,00,0004*4D
$GPGGA,073550.20,3803.2925366,N,10613.2505438,E,4,22,0.7,1118.3302,M,-41.632,M,00,0004*47
$GPGGA,073550.25,3803.2925363,N,10613.2505675,E,4,22,0.7,1118.3303,M,-41.632,M,00,0004*4D
$GPGGA,073550.30,3803.2925356,N,10613.2505895,E,4,22,0.7,1118.3286,M,-41.632,M,00,0004*43
$GPGGA,073550.35,3803.2925344,N,10613.2506125,E,4,22,0.7,1118.3269,M,-41.632,M,00,0004*45
$GPGGA,073550.40,3803.2925346,N,10613.2506369,E,4,22,0.7,1118.3253,M,-41.632,M,00,0004*46
$GPGGA,073550.45,3803.2925333,N,10613.2506629,E,4,22,0.7,1118.3270,M,-41.632,M,00,0004*41
$GPGGA,073550.50,3803.2925323,N,10613.2506872,E,4,22,0.7,1118.3284,M,-41.632,M,00,0004*4F
$GPGGA,073550.55,3803.2925316,N,10613.2507123,E,4,22,0.7,1118.3275,M,-41.632,M,00,0004*4E
$GPGGA,073550.60,3803.2925314,N,10613.2507389,E,4,22,0.7,1118.3295,M,-41.632,M,00,0004*46
$GPGGA,073550.65,3803.2925317,N,10613.2507652,E,4,22,0.7,1118.3253,M,-41.632,M,00,0004*49
$GPGGA,073550.70,3803.2925286,N,10613.2507937,E,4,22,0.7,1118.3333,M,-41.632,M,00,0004*4F
$GPGGA,073550.75,3803.2925273,N,10613.2508235,E,4,22,0.7,1118.3328,M,-41.632,M,00,0004*4C
$GPGGA,073550.80,3803.2925259,N,10613.2508520,E,4,22,0.7,1118.3343,M,-41.632,M,00,0004*40
$GPGGA,073550.85,3803.2925241,N,10613.2508819,E,4,22,0.7,1118.3404,M,-41.632,M,00,0004*4F
$GPGGA,073550.90,3803.2925222,N,10613.2509130,E,4,22,0.7,1118.3443,M,-41.632,M,00,0004*4E
$GPGGA,073550.95,3803.2925200,N,10613.2509453,E,4,22,0.7,1118.3447,M,-41.632,M,00,0004*4F
$GPGGA,073551.00,3803.2925196,N,10613.2509772,E,4,22,0.7,1118.3438,M,-41.632,M,01,0004*47
$GPGGA,073551.05,3803.2925194,N,10613.2510074,E,4,22,0.7,1118.3459,M,-41.632,M,01,0004*4E
$GPGGA,073551.10,3803.2925167,N,10613.2510386,E,4,22,0.7,1118.3501,M,-41.632,M,00,0004*45
$GPGGA,073551.15,3803.2925169,N,10613.2510721,E,4,22,0.7,1118.3497,M,-41.632,M,00,0004*49
$GPGGA,073551.20,3803.2925171,N,10613.2511065,E,4,22,0.7,1118.3506,M,-41.632,M,00,0004*49
$GPGGA,073551.25,3803.2925176,N,10613.2511389,E,4,22,0.7,1118.3506,M,-41.632,M,00,0004*4A
$GPGGA,073551.30,3803.2925162,N,10613.2511739,E,4,22,0.7,1118.3501,M,-41.632,M,00,0004*43
$GPGGA,073551.35,3803.2925168,N,10613.2512099,E,4,22,0.7,1118.3459,M,-41.632,M,00,0004*4E
$GPGGA,073551.40,3803.2925153,N,10613.2512464,E,4,22,0.7,1118.3504,M,-41.632,M,00,0004*4B
$GPGGA,073551.45,3803.2925160,N,10613.2512819,E,4,22,0.7,1118.3510,M,-41.632,M,00,0004*4D
$GPGGA,073551.50,3803.2925169,N,10613.2513188,E,4,22,0.7,1118.3458,M,-41.632,M,00,0004*4D
$GPGGA,073551.55,3803.2925130,N,10613.2513590,E,4,22,0.7,1118.3540,M,-41.632,M,00,0004*41
$GPGGA,073551.60,3803.2925129,N,10613.2513993,E,4,22,0.7,1118.3537,M,-41.632,M,00,0004*40
$GPGGA,073551.65,3803.2925107,N,10613.2514387,E,4,22,0.7,1118.3525,M,-41.632,M,00,0004*42
$GPGGA,073551.70,3803.2925097,N,10613.2514795,E,4,22,0.7,1118.3539,M,-41.632,M,00,0004*44
$GPGGA,073551.75,3803.2925095,N,10613.2515175,E,4,22,0.7,1118.3542,M,-41.632,M,00,0004*46
$GPGGA,073551.80,3803.2925084,N,10613.2515576,E,4,22,0.7,1118.3496,M,-41.632,M,00,0004*43
$GPGGA,073551.85,3803.2925057,N,10613.2516017,E,4,22,0.7,1118.3508,M,-41.632,M,00,0004*4F
$GPGGA,073551.90,3803.2925039,N,10613.2516454,E,4,22,0.7,1118.3531,M,-41.632,M,00,0004*4A
$GPGGA,073551.95,3803.2925047,N,10613.2516863,E,4,22,0.7,1118.3484,M,-41.632,M,00,0004*41
$GPGGA,073552.00,3803.2925021,N,10613.2517282,E,4,22,0.7,1118.3486,M,-41.632,M,01,0004*49
$GPGGA,073552.05,3803.2924991,N,10613.2517715,E,4,22,0.7,1118.3509,M,-41.632,M,01,0004*42
$GPGGA,073552.10,3803.2924997,N,10613.2518142,E,4,22,0.7,1118.3448,M,-41.632,M,00,0004*4E
$GPGGA,073552.15,3803.2924974,N,10613.2518550,E,4,22,0.7,1118.3492,M,-41.632,M,00,0004*46
$GPGGA,073552.20,3803.2924966,N,10613.2518959,E,4,22,0.7,1118.3509,M,-41.632,M,00,0004*45
$GPGGA,073552.25,3803.2924965,N,10613.2519347,E,4,22,0.7,1118.3490,M,-41.632,M,00,0004*46
$GPGGA,073552.30,3803.2924968,N,10613.2519757,E,4,22,0.7,1118.3485,M,-41.632,M,00,0004*4E
$GPGGA,073552.35,3803.2924954,N,10613.2520173,E,4,22,0.7,1118.3526,M,-41.632,M,00,0004*46
$GPGGA,073552.40,3803.2924963,N,10613.2520579,E,4,22,0.7,1118.3505,M,-41.632,M,00,0004*4F
$GPGGA,073552.45,3803.2924957,N,10613.2520992,E,4,22,0.7,1118.3518,M,-41.632,M,00,0004*48
$GPGGA,073552.50,3803.2924932,N,10613.2521434,E,4,22,0.7,1118.3552,M,-41.632,M,00,0004*41
$GPGGA,073552.55,3803.2924935,N,10613.2521844,E,4,22,0.7,1118.3479,M,-41.632,M,00,0004*40
$GPGGA,073552.60,3803.2924937,N,10613.2522239,E,4,22,0.7,1118.3480,M,-41.632,M,00,0004*41
$GPGGA,073552.65,3803.2924921,N,10613.2522639,E,4,22,0.7,1118.3468,M,-41.632,M,00,0004*41
$GPGGA,073552.70,3803.2924927,N,10613.2523051,E,4,22,0.7,1118.3461,M,-41.632,M,00,0004*43
$GPGGA,073552.75,3803.2924923,N,10613.2523458,E,4,22,0.7,1118.3479,M,-41.632,M,00,0004*46
$GPGGA,073552.80,3803.2924915,N,10613.2523878,E,4,22,0.7,1118.3453,M,-41.632,M,00,0004*4F
$GPGGA,073552.85,3803.2924919,N,10613.2524277,E,4,22,0.7,1118.3425,M,-41.632,M,00,0004*45
$GPGGA,073552.90,3803.2924909,N,10613.2524696,E,4,22,0.7,1118.3461,M,-41.632,M,00,0004*4B
$GPGGA,073552.95,3803.2924906,N,10613.2525111,E,4,22,0.7,1118.3439,M,-41.632,M,00,0004*45
$GPGGA,073553.00,3803.2924894,N,10613.2525505,E,4,22,0.7,1118.3408,M,-41.632,M,01,0004*40
$GPGGA,073553.05,3803.2924892,N,10613.2525905,E,4,22,0.7,1118.3383,M,-41.632,M,01,0004*4B
$GPGGA,073553.10,3803.2924887,N,10613.2526324,E,4,22,0.7,1118.3336,M,-41.632,M,00,0004*4E
$GPGGA,073553.15,3803.2924883,N,10613.2526730,E,4,22,0.7,1118.3337,M,-41.632,M,00,0004*4F
$GPGGA,073553.20,3803.2924880,N,10613.2527131,E,4,22,0.7,1118.3345,M,-41.632,M,00,0004*49
$GPGGA,073553.25,3803.2924880,N,10613.2527538,E,4,22,0.7,1118.3360,M,-41.632,M,00,0004*46
$GPGGA,073553.30,3803.2924897,N,10613.2527957,E,4,22,0.7,1118.3349,M,-41.632,M,00,0004*4A
$GPGGA,073553.35,3803.2924931,N,10613.2528356,E,4,22,0.7,1118.3314,M,-41.632,M,00,0004*4E
$GPGGA,073553.40,3803.2924926,N,10613.2528783,E,4,22,0.7,1118.3367,M,-41.632,M,00,0004*42
$GPGGA,073553.45,3803.2924945,N,10613.2529197,E,4,22,0.7,1118.3343,M,-41.632,M,00,0004*46
$GPGGA,073553.50,3803.2924961,N,10613.2529614,E,4,22,0.7,1118.3331,M,-41.632,M,00,0004*4D
$GPGGA,073553.55,3803.2924955,N,10613.2530041,E,4,22,0.7,1118.3362,M,-41.632,M,00,0004*47
$GPGGA,073553.60,3803.2924957,N,10613.2530468,E,4,22,0.7,1118.3365,M,-41.632,M,00,0004*4B
$GPGGA,073553.65,3803.2924959,N,10613.2530872,E,4,22,0.7,1118.3398,M,-41.632,M,00,0004*45
$GPGGA,073553.70,3803.2924964,N,10613.2531296,E,4,22,0.7,1118.3399,M,-41.632,M,00,0004*4F
$GPGGA,073553.75,3803.2924961,N,10613.2531698,E,4,22,0.7,1118.3372,M,-41.632,M,00,0004*40
$GPGGA,073553.80,3803.2924944,N,10613.2532121,E,4,22,0.7,1118.3417,M,-41.632,M,00,0004*4F
$GPGGA,073553.85,3803.2924926,N,10613.2532554,E,4,22,0.7,1118.3437,M,-41.632,M,00,0004*4A
$GPGGA,073553.90,3803.2924910,N,10613.2532980,E,4,22,0.7,1118.3453,M,-41.632,M,00,0004*4C
$GPGGA,073553.95,3803.2924920,N,10613.2533411,E,4,22,0.7,1118.3445,M,-41.632,M,00,0004*49
$GPGGA,073554.00,3803.2924926,N,10613.2533818,E,4,22,0.7,1118.3427,M,-41.632,M,01,0004*44
$GPGGA,073554.05,3803.2924919,N,10613.2534262,E,4,22,0.7,1118.3425,M,-41.632,M,01,0004*4F
$GPGGA,073554.10,3803.2924887,N,10613.2534707,E,4,22,0.7,1118.3467,M,-41.632,M,00,0004*4C
$GPGGA,073554.15,3803.2924871,N,10613.2535176,E,4,22,0.7,1118.3482,M,-41.632,M,00,0004*4A
$GPGGA,073554.20,3803.2924903,N,10613.2535648,E,4,22,0.7,1118.3445,M,-41.632,M,00,0004*49
$GPGGA,073554.25,3803.2924909,N,10613.2536126,E,4,22,0.7,1118.3480,M,-41.632,M,00,0004*43
$GPGGA,073554.30,3803.2924949,N,10613.2536591,E,4,22,0.7,1118.3449,M,-41.632,M,00,0004*4E
$GPGGA,073554.35,3803.2924980,N,10613.2537085,E,4,22,0.7,1118.3470,M,-41.632,M,00,0004*45
$GPGGA,073554.40,3803.2925013,N,10613.2537577,E,4,22,0.7,1118.3505,M,-41.632,M,00,0004*4E
$GPGGA,073554.45,3803.2925049,N,10613.2538086,E,4,22,0.7,1118.3498,M,-41.632,M,00,0004*45
$GPGGA,073554.50,3803.2925084,N,10613.2538583,E,4,22,0.7,1118.3501,M,-41.632,M,00,0004*41
$GPGGA,073554.55,3803.2925119,N,10613.2539078,E,4,22,0.7,1118.3542,M,-41.632,M,00,0004*46
$GPGGA,073554.60,3803.2925134,N,10613.2539574,E,4,22,0.7,1118.3602,M,-41.631,M,00,0004*42
$GPGGA,073554.65,3803.2925117,N,10613.2540066,E,4,22,0.7,1118.3637,M,-41.631,M,00,0004*48
$GPGGA,073554.70,3803.2925083,N,10613.2540574,E,4,22,0.7,1118.3663,M,-41.631,M,00,0004*47
$GPGGA,073554.75,3803.2925069,N,10613.2541090,E,4,22,0.7,1118.3654,M,-41.631,M,00,0004*4C
$GPGGA,073554.80,3803.2925061,N,10613.2541587,E,4,22,0.7,1118.3608,M,-41.631,M,00,0004*44
$GPGGA,073554.85,3803.2925037,N,10613.2542091,E,4,22,0.7,1118.3595,M,-41.631,M,00,0004*44
$GPGGA,073554.90,3803.2925035,N,10613.2542572,E,4,22,0.7,1118.3563,M,-41.631,M,00,0004*43
$GPGGA,073554.95,3803.2925027,N,10613.2543074,E,4,22,0.7,1118.3521,M,-41.631,M,00,0004*41
$GPGGA,073555.00,3803.2925013,N,10613.2543576,E,4,23,0.7,1118.3483,M,-41.631,M,01,0004*45
$GPGGA,073555.05,3803.2925018,N,10613.2544066,E,4,23,0.7,1118.3472,M,-41.631,M,01,0004*46
$GPGGA,073555.10,3803.2925009,N,10613.2544600,E,4,23,0.7,1118.3512,M,-41.631,M,00,0004*42
$GPGGA,073555.15,3803.2925029,N,10613.2545109,E,4,23,0.7,1118.3481,M,-41.631,M,00,0004*41
$GPGGA,073555.20,3803.2925047,N,10613.2545631,E,4,23,0.7,1118.3493,M,-41.631,M,00,0004*40
$GPGGA,073555.25,3803.2925056,N,10613.2546162,E,4,23,0.7,1118.3510,M,-41.631,M,00,0004*4D
$GPGGA,073555.30,3803.2925091,N,10613.2546658,E,4,23,0.7,1118.3492,M,-41.631,M,00,0004*47
$GPGGA,073555.35,3803.2925123,N,10613.2547160,E,4,23,0.7,1118.3448,M,-41.631,M,00,0004*40
$GPGGA,073555.40,3803.2925107,N,10613.2547689,E,4,23,0.7,1118.3517,M,-41.631,M,00,0004*4F
$GPGGA,073555.45,3803.2925120,N,10613.2548184,E,4,23,0.7,1118.3478,M,-41.631,M,00,0004*42
$GPGGA,073555.50,3803.2925111,N,10613.2548706,E,4,23,0.7,1118.3464,M,-41.631,M,00,0004*45
$GPGGA,073555.55,3803.2925095,N,10613.2549241,E,4,23,0.7,1118.3476,M,-41.631,M,00,0004*49
$GPGGA,073555.60,3803.2925080,N,10613.2549730,E,4,23,0.7,1118.3448,M,-41.631,M,00,0004*45
$GPGGA,073555.65,3803.2925057,N,10613.2550250,E,4,23,0.7,1118.3475,M,-41.631,M,00,0004*4F
$GPGGA,073555.70,3803.2925059,N,10613.2550729,E,4,23,0.7,1118.3387,M,-41.631,M,00,0004*44
$GPGGA,073555.75,3803.2925043,N,10613.2551220,E,4,23,0.7,1118.3377,M,-41.631,M,00,0004*48
$GPGGA,073555.80,3803.2924999,N,10613.2551713,E,4,23,0.7,1118.3426,M,-41.631,M,00,0004*4B
$GPGGA,073555.85,3803.2924979,N,10613.2552202,E,4,23,0.7,1118.3402,M,-41.631,M,00,0004*40
$GPGGA,073555.90,3803.2924986,N,10613.2552695,E,4,23,0.7,1118.3401,M,-41.631,M,00,0004*4D
$GPGGA,073555.95,3803.2924987,N,10613.2553190,E,4,23,0.7,1118.3388,M,-41.631,M,00,0004*4C
$GPGGA,073556.00,3803.2924995,N,10613.2553668,E,4,23,0.7,1118.3390,M,-41.631,M,01,0004*48
$GPGGA,073556.05,3803.2925006,N,10613.2554165,E,4,23,0.7,1118.3393,M,-41.631,M,01,0004*41
$GPGGA,073556.10,3803.2924985,N,10613.2554661,E,4,23,0.7,1118.3406,M,-41.631,M,00,0004*4F
$GPGGA,073556.15,3803.2925006,N,10613.2555157,E,4,23,0.7,1118.3398,M,-41.631,M,00,0004*4A
$GPGGA,073556.20,3803.2925007,N,10613.2555644,E,4,23,0.7,1118.3380,M,-41.631,M,00,0004*41
$GPGGA,073556.25,3803.2924995,N,10613.2556133,E,4,23,0.7,1118.3396,M,-41.631,M,00,0004*44
$GPGGA,073556.30,3803.2924969,N,10613.2556643,E,4,23,0.7,1118.3403,M,-41.631,M,00,0004*48
$GPGGA,073556.35,3803.2924953,N,10613.2557135,E,4,23,0.7,1118.3337,M,-41.631,M,00,0004*43
$GPGGA,073556.40,3803.2924922,N,10613.2557625,E,4,23,0.7,1118.3346,M,-41.631,M,00,0004*47
$GPGGA,073556.45,3803.2924892,N,10613.2558124,E,4,23,0.7,1118.3368,M,-41.631,M,00,0004*4D
$GPGGA,073556.50,3803.2924864,N,10613.2558607,E,4,23,0.7,1118.3329,M,-41.631,M,00,0004*43
$GPGGA,073556.55,3803.2924830,N,10613.2559079,E,4,23,0.7,1118.3328,M,-41.631,M,00,0004*48
$GPGGA,073556.60,3803.2924797,N,10613.2559540,E,4,23,0.7,1118.3304,M,-41.631,M,00,0004*4D
$GPGGA,073556.65,3803.2924759,N,10613.2560002,E,4,23,0.7,1118.3331,M,-41.631,M,00,0004*45
$GPGGA,073556.70,3803.2924734,N,10613.2560459,E,4,23,0.7,1118.3325,M,-41.631,M,00,0004*45
$GPGGA,073556.75,3803.2924715,N,10613.2560932,E,4,23,0.7,1118.3293,M,-41.631,M,00,0004*4F
$GPGGA,073556.80,3803.2924704,N,10613.2561378,E,4,23,0.7,1118.3292,M,-41.631,M,00,0004*41
$GPGGA,073556.85,3803.2924703,N,10613.2561844,E,4,23,0.7,1118.3280,M,-41.631,M,00,0004*44
$GPGGA,073556.90,3803.2924679,N,10613.2562299,E,4,23,0.7,1118.3333,M,-41.631,M,00,0004*4C
$GPGGA,073556.95,3803.2924649,N,10613.2562753,E,4,23,0.7,1118.3362,M,-41.631,M,00,0004*4D
$GPGGA,073557.00,3803.2924620,N,10613.2563224,E,4,23,0.7,1118.3345,M,-41.631,M,01,0004*4F
$GPGGA,073557.05,3803.2924583,N,10613.2563695,E,4,23,0.7,1118.3410,M,-41.631,M,01,0004*49
$GPGGA,073557.10,3803.2924554,N,10613.2564149,E,4,23,0.7,1118.3411,M,-41.631,M,00,0004*46
$GPGGA,073557.15,3803.2924514,N,10613.2564583,E,4,23,0.7,1118.3375,M,-41.631,M,00,0004*40
$GPGGA,073557.20,3803.2924490,N,10613.2565019,E,4,23,0.7,1118.3345,M,-41.631,M,00,0004*4F
$GPGGA,073557.25,3803.2924424,N,10613.2565479,E,4,23,0.7,1118.3361,M,-41.631,M,00,0004*41
$GPGGA,073557.30,3803.2924367,N,10613.2565931,E,4,23,0.7,1118.3383,M,-41.631,M,00,0004*48
$GPGGA,073557.35,3803.2924326,N,10613.2566370,E,4,23,0.7,1118.3390,M,-41.631,M,00,0004*46
$GPGGA,073557.40,3803.2924284,N,10613.2566817,E,4,23,0.7,1118.3332,M,-41.631,M,00,0004*4F
$GPGGA,073557.45,3803.2924220,N,10613.2567270,E,4,23,0.7,1118.3332,M,-41.631,M,00,0004*4E
$GPGGA,073557.50,3803.2924171,N,10613.2567706,E,4,23,0.7,1118.3348,M,-41.631,M,00,0004*44
$GPGGA,073557.55,3803.2924118,N,10613.2568137,E,4,23,0.7,1118.3332,M,-41.631,M,00,0004*48
$GPGGA,073557.60,3803.2924057,N,10613.2568573,E,4,23,0.7,1118.3328,M,-41.631,M,00,0004*4B
$GPGGA,073557.65,3803.2924011,N,10613.2569019,E,4,23,0.7,1118.3309,M,-41.631,M,00,0004*47
$GPGGA,073557.70,3803.2923964,N,10613.2569429,E,4,23,0.7,1118.3377,M,-41.631,M,00,0004*41
$GPGGA,073557.75,3803.2923911,N,10613.2569858,E,4,23,0.7,1118.3379,M,-41.631,M,00,0004*42
$GPGGA,073557.80,3803.2923857,N,10613.2570283,E,4,23,0.7,1118.3431,M,-41.631,M,00,0004*44
$GPGGA,073557.85,3803.2923790,N,10613.2570712,E,4,23,0.7,1118.3417,M,-41.631,M,00,0004*4C
$GPGGA,073557.90,3803.2923709,N,10613.2571130,E,4,23,0.7,1118.3482,M,-41.631,M,00,0004*43
$GPGGA,073557.95,3803.2923626,N,10613.2571540,E,4,23,0.7,1118.3489,M,-41.631,M,00,0004*42
$GPGGA,073558.00,3803.2923564,N,10613.2571969,E,4,23,0.7,1118.3464,M,-41.631,M,01,0004*41
$GPGGA,073558.05,3803.2923470,N,10613.2572393,E,4,23,0.7,1118.3444,M,-41.631,M,01,0004*4E
$GPGGA,073558.10,3803.2923371,N,10613.2572787,E,4,22,0.7,1118.3440,M,-41.631,M,00,0004*49
$GPGGA,073558.15,3803.2923265,N,10613.2573209,E,4,22,0.7,1118.3417,M,-41.631,M,00,0004*48
$GPGGA,073558.20,3803.2923159,N,10613.2573614,E,4,22,0.7,1118.3460,M,-41.631,M,00,0004*4A
$GPGGA,073558.25,3803.2923062,N,10613.2574026,E,4,22,0.7,1118.3464,M,-41.631,M,00,0004*42
$GPGGA,073558.30,3803.2922970,N,10613.2574435,E,4,22,0.7,1118.3467,M,-41.631,M,00,0004*48
$GPGGA,073558.35,3803.2922870,N,10613.2574864,E,4,22,0.7,1118.3488,M,-41.631,M,00,0004*45
$GPGGA,073558.40,3803.2922771,N,10613.2575275,E,4,22,0.7,1118.3381,M,-41.631,M,00,0004*4C
$GPGGA,073558.45,3803.2922644,N,10613.2575677,E,4,22,0.7,1118.3419,M,-41.631,M,00,0004*4E
$GPGGA,073558.50,3803.2922538,N,10613.2576083,E,4,22,0.7,1118.3406,M,-41.631,M,00,0004*42
$GPGGA,073558.55,3803.2922431,N,10613.2576481,E,4,22,0.7,1118.3362,M,-41.631,M,00,0004*4C
$GPGGA,073558.60,3803.2922299,N,10613.2576856,E,4,22,0.7,1118.3412,M,-41.631,M,00,0004*48
$GPGGA,073558.65,3803.2922191,N,10613.2577230,E,4,22,0.7,1118.3382,M,-41.631,M,00,0004*43
$GPGGA,073558.70,3803.2922076,N,10613.2577613,E,4,22,0.7,1118.3365,M,-41.631,M,00,0004*43
$GPGGA,073558.75,3803.2921954,N,10613.2577989,E,4,22,0.7,1118.3388,M,-41.631,M,00,0004*43
$GPGGA,073558.80,3803.2921834,N,10613.2578340,E,4,22,0.7,1118.3385,M,-41.631,M,00,0004*43
$GPGGA,073558.85,3803.2921683,N,10613.2578705,E,4,22,0.7,1118.3409,M,-41.631,M,00,0004*42
$GPGGA,073558.90,3803.2921549,N,10613.2579064,E,4,22,0.7,1118.3401,M,-41.631,M,00,0004*4A
$GPGGA,073558.95,3803.2921413,N,10613.2579431,E,4,22,0.7,1118.3376,M,-41.631,M,00,0004*42
$GPGGA,073559.00,3803.2921247,N,10613.2579795,E,4,22,0.7,1118.3394,M,-41.631,M,01,0004*48
$GPGGA,073559.05,3803.2921088,N,10613.2580182,E,4,22,0.7,1118.3395,M,-41.631,M,01,0004*4B
$GPGGA,073559.10,3803.2920929,N,10613.2580564,E,4,23,0.7,1118.3418,M,-41.631,M,00,0004*42
$GPGGA,073559.15,3803.2920788,N,10613.2580947,E,4,23,0.7,1118.3430,M,-41.631,M,00,0004*45
$GPGGA,073559.20,3803.2920624,N,10613.2581341,E,4,23,0.7,1118.3427,M,-41.631,M,00,0004*4F
$GPGGA,073559.25,3803.2920452,N,10613.2581721,E,4,23,0.7,1118.3405,M,-41.631,M,00,0004*4B
$GPGGA,073559.30,3803.2920285,N,10613.2582101,E,4,23,0.7,1118.3367,M,-41.631,M,00,0004*47
$GPGGA,073559.35,3803.2920116,N,10613.2582473,E,4,23,0.7,1118.3362,M,-41.631,M,00,0004*4E
$GPGGA,073559.40,3803.2919951,N,10613.2582853,E,4,23,0.7,1118.3353,M,-41.631,M,00,0004*41
$GPGGA,073559.45,3803.2919786,N,10613.2583237,E,4,23,0.7,1118.3326,M,-41.631,M,00,0004*4B
$GPGGA,073559.50,3803.2919610,N,10613.2583623,E,4,23,0.7,1118.3286,M,-41.631,M,00,0004*4B
$GPGGA,073559.55,3803.2919428,N,10613.2583985,E,4,23,0.7,1118.3266,M,-41.631,M,00,0004*4A
$GPGGA,073559.60,3803.2919256,N,10613.2584328,E,4,23,0.7,1118.3245,M,-41.631,M,00,0004*48
$GPGGA,073559.65,3803.2919068,N,10613.2584682,E,4,23,0.7,1118.3240,M,-41.631,M,00,0004*42
$GPGGA,073559.70,3803.2918874,N,10613.2585053,E,4,23,0.7,1118.3270,M,-41.631,M,00,0004*4A
$GPGGA,073559.75,3803.2918689,N,10613.2585411,E,4,23,0.7,1118.3281,M,-41.631,M,00,0004*4F
$GPGGA,073559.80,3803.2918471,N,10613.2585769,E,4,23,0.7,1118.3345,M,-41.631,M,00,0004*45
$GPGGA,073559.85,3803.2918244,N,10613.2586143,E,4,23,0.7,1118.3370,M,-41.631,M,00,0004*4B
$GPGGA,073559.90,3803.2918030,N,10613.2586502,E,4,23,0.7,1118.3358,M,-41.631,M,00,0004*45
$GPGGA,073559.95,3803.2917841,N,10613.2586878,E,4,23,0.7,1118.3318,M,-41.631,M,00,0004*45
$GPGGA,073600.00,3803.2917632,N,10613.2587270,E,4,23,0.7,1118.3393,M,-41.631,M,01,0004*4D
$GPGGA,073600.05,3803.2917403,N,10613.2587653,E,4,23,0.7,1118.3395,M,-41.631,M,01,0004*4B
$GPGGA,073600.10,3803.2917192,N,10613.2588025,E,4,22,0.7,1118.3422,M,-41.631,M,00,0004*41
$GPGGA,073600.15,3803.2916977,N,10613.2588399,E,4,22,0.7,1118.3387,M,-41.631,M,00,0004*4A
$GPGGA,073600.20,3803.2916755,N,10613.2588799,E,4,22,0.7,1118.3404,M,-41.631,M,00,0004*4A
$GPGGA,073600.25,3803.2916547,N,10613.2589181,E,4,22,0.7,1118.3412,M,-41.631,M,00,0004*47
$GPGGA,073600.30,3803.2916318,N,10613.2589569,E,4,22,0.7,1118.3382,M,-41.631,M,00,0004*43
$GPGGA,073600.35,3803.2916072,N,10613.2589945,E,4,22,0.7,1118.3394,M,-41.631,M,00,0004*4C
$GPGGA,073600.40,3803.2915838,N,10613.2590307,E,4,22,0.7,1118.3355,M,-41.631,M,00,0004*42
$GPGGA,073600.45,3803.2915579,N,10613.2590666,E,4,22,0.7,1118.3329,M,-41.631,M,00,0004*46
$GPGGA,073600.50,3803.2915333,N,10613.2591023,E,4,22,0.7,1118.3325,M,-41.631,M,00,0004*40
$GPGGA,073600.55,3803.2915073,N,10613.2591382,E,4,22,0.7,1118.3317,M,-41.631,M,00,0004*4B
$GPGGA,073600.60,3803.2914821,N,10613.2591711,E,4,22,0.7,1118.3309,M,-41.631,M,00,0004*42
$GPGGA,073600.65,3803.2914585,N,10613.2592030,E,4,22,0.7,1118.3375,M,-41.631,M,00,0004*48
$GPGGA,073600.70,3803.2914340,N,10613.2592364,E,4,22,0.7,1118.3403,M,-41.631,M,00,0004*47
$GPGGA,073600.75,3803.2914074,N,10613.2592707,E,4,22,0.7,1118.3443,M,-41.631,M,00,0004*43
$GPGGA,073600.80,3803.2913827,N,10613.2593057,E,4,22,0.7,1118.3472,M,-41.631,M,00,0004*41
$GPGGA,073600.85,3803.2913548,N,10613.2593388,E,4,22,0.7,1118.3448,M,-41.631,M,00,0004*48
$GPGGA,073600.90,3803.2913279,N,10613.2593715,E,4,22,0.7,1118.3459,M,-41.631,M,00,0004*49
$GPGGA,073600.95,3803.2913019,N,10613.2594069,E,4,22,0.7,1118.3482,M,-41.631,M,00,0004*45
$GPGGA,073601.00,3803.2912756,N,10613.2594430,E,4,22,0.7,1118.3489,M,-41.631,M,01,0004*47
$GPGGA,073601.05,3803.2912491,N,10613.2594777,E,4,22,0.7,1118.3407,M,-41.631,M,01,0004*4C
$GPGGA,073601.10,3803.2912223,N,10613.2595120,E,4,23,0.7,1118.3436,M,-41.631,M,00,0004*40
$GPGGA,073601.15,3803.2911946,N,10613.2595471,E,4,23,0.7,1118.3431,M,-41.631,M,00,0004*48
$GPGGA,073601.20,3803.2911687,N,10613.2595832,E,4,23,0.7,1118.3394,M,-41.631,M,00,0004*4F
$GPGGA,073601.25,3803.2911394,N,10613.2596183,E,4,23,0.7,1118.3420,M,-41.631,M,00,0004*45
$GPGGA,073601.30,3803.2911102,N,10613.2596495,E,4,23,0.7,1118.3430,M,-41.631,M,00,0004*4F
$GPGGA,073601.35,3803.2910799,N,10613.2596805,E,4,23,0.7,1118.3485,M,-41.631,M,00,0004*44
$GPGGA,073601.40,3803.2910508,N,10613.2597097,E,4,23,0.7,1118.3468,M,-41.631,M,00,0004*4D
$GPGGA,073601.45,3803.2910208,N,10613.2597366,E,4,23,0.7,1118.3492,M,-41.631,M,00,0004*47
$GPGGA,073601.50,3803.2909899,N,10613.2597650,E,4,23,0.7,1118.3515,M,-41.631,M,00,0004*47
$GPGGA,073601.55,3803.2909588,N,10613.2597943,E,4,23,0.7,1118.3548,M,-41.631,M,00,0004*4A
$GPGGA,073601.60,3803.2909283,N,10613.2598251,E,4,23,0.7,1118.3604,M,-41.631,M,00,0004*4C
$GPGGA,073601.65,3803.2908992,N,10613.2598542,E,4,23,0.7,1118.3580,M,-41.631,M,00,0004*49
$GPGGA,073601.70,3803.2908700,N,10613.2598835,E,4,23,0.7,1118.3518,M,-41.631,M,00,0004*44
$GPGGA,073601.75,3803.2908389,N,10613.2599124,E,4,23,0.7,1118.3535,M,-41.631,M,00,0004*43
$GPGGA,073601.80,3803.2908100,N,10613.2599422,E,4,23,0.7,1118.3505,M,-41.631,M,00,0004*4A
$GPGGA,073601.85,3803.2907801,N,10613.2599712,E,4,23,0.7,1118.3438,M,-41.631,M,00,0004*47
$GPGGA,073601.90,3803.2907511,N,10613.2599997,E,4,23,0.7,1118.3419,M,-41.631,M,00,0004*4F
$GPGGA,073601.95,3803.2907196,N,10613.2600289,E,4,23,0.7,1118.3444,M,-41.631,M,00,0004*4E
$GPGGA,073602.00,3803.2906868,N,10613.2600543,E,4,23,0.7,1118.3450,M,-41.631,M,01,0004*4D
$GPGGA,073602.05,3803.2906555,N,10613.2600774,E,4,23,0.7,1118.3418,M,-41.631,M,01,0004*41
$GPGGA,073602.10,3803.2906222,N,10613.2601003,E,4,23,0.7,1118.3420,M,-41.631,M,00,0004*4E
$GPGGA,073602.15,3803.2905886,N,10613.2601249,E,4,23,0.7,1118.3424,M,-41.631,M,00,0004*44
$GPGGA,073602.20,3803.2905565,N,10613.2601497,E,4,23,0.7,1118.3438,M,-41.631,M,00,0004*4A
$GPGGA,073602.25,3803.2905249,N,10613.2601736,E,4,23,0.7,1118.3436,M,-41.631,M,00,0004*40
$GPGGA,073602.30,3803.2904915,N,10613.2601957,E,4,23,0.7,1118.3427,M,-41.631,M,00,0004*4E
$GPGGA,073602.35,3803.2904582,N,10613.2602158,E,4,23,0.7,1118.3489,M,-41.631,M,00,0004*49
$GPGGA,073602.40,3803.2904238,N,10613.2602337,E,4,23,0.7,1118.3465,M,-41.631,M,00,0004*44
$GPGGA,073602.45,3803.2903874,N,10613.2602512,E,4,23,0.7,1118.3468,M,-41.631,M,00,0004*48
$GPGGA,073602.50,3803.2903520,N,10613.2602690,E,4,23,0.7,1118.3464,M,-41.631,M,00,0004*45
$GPGGA,073602.55,3803.2903180,N,10613.2602904,E,4,23,0.7,1118.3450,M,-41.631,M,00,0004*4B
$GPGGA,073602.60,3803.2902853,N,10613.2603112,E,4,23,0.7,1118.3443,M,-41.631,M,00,0004*47
$GPGGA,073602.65,3803.2902525,N,10613.2603311,E,4,23,0.7,1118.3435,M,-41.631,M,00,0004*4E
$GPGGA,073602.70,3803.2902176,N,10613.2603507,E,4,23,0.7,1118.3442,M,-41.631,M,00,0004*49
$GPGGA,073602.75,3803.2901820,N,10613.2603698,E,4,23,0.7,1118.3428,M,-41.631,M,00,0004*4C
$GPGGA,073602.80,3803.2901476,N,10613.2603877,E,4,23,0.7,1118.3426,M,-41.631,M,00,0004*48
$GPGGA,073602.85,3803.2901134,N,10613.2604060,E,4,23,0.7,1118.3406,M,-41.631,M,00,0004*45
$GPGGA,073602.90,3803.2900782,N,10613.2604215,E,4,23,0.7,1118.3414,M,-41.631,M,00,0004*48
$GPGGA,073602.95,3803.2900429,N,10613.2604361,E,4,23,0.7,1118.3401,M,-41.631,M,00,0004*49
$GPGGA,073603.00,3803.2900090,N,10613.2604493,E,4,23,0.7,1118.3409,M,-41.631,M,01,0004*41
$GPGGA,073603.05,3803.2899752,N,10613.2604595,E,4,23,0.7,1118.3391,M,-41.631,M,01,0004*4D
$GPGGA,073603.10,3803.2899409,N,10613.2604650,E,4,23,0.7,1118.3384,M,-41.631,M,00,0004*4B
$GPGGA,073603.15,3803.2899051,N,10613.2604758,E,4,23,0.7,1118.3401,M,-41.631,M,00,0004*44
$GPGGA,073603.20,3803.2898694,N,10613.2604853,E,4,23,0.7,1118.3425,M,-41.631,M,00,0004*4E
$GPGGA,073603.25,3803.2898340,N,10613.2604939,E,4,23,0.7,1118.3470,M,-41.631,M,00,0004*4A
$GPGGA,073603.30,3803.2898000,N,10613.2605016,E,4,23,0.7,1118.3473,M,-41.631,M,00,0004*4F
$GPGGA,073603.35,3803.2897663,N,10613.2605090,E,4,23,0.7,1118.3447,M,-41.631,M,00,0004*4F
$GPGGA,073603.40,3803.2897327,N,10613.2605162,E,4,23,0.7,1118.3443,M,-41.631,M,00,0004*40
$GPGGA,073603.45,3803.2896976,N,10613.2605236,E,4,23,0.7,1118.3437,M,-41.631,M,00,0004*4B
$GPGGA,073603.50,3803.2896618,N,10613.2605283,E,4,23,0.7,1118.3442,M,-41.631,M,00,0004*44
$GPGGA,073603.55,3803.2896272,N,10613.2605342,E,4,23,0.7,1118.3384,M,-41.631,M,00,0004*48
$GPGGA,073603.60,3803.2895911,N,10613.2605396,E,4,23,0.7,1118.3359,M,-41.631,M,00,0004*4A
$GPGGA,073603.65,3803.2895557,N,10613.2605446,E,4,23,0.7,1118.3352,M,-41.631,M,00,0004*40
$GPGGA,073603.70,3803.2895199,N,10613.2605496,E,4,23,0.7,1118.3372,M,-41.631,M,00,0004*4D
$GPGGA,073603.75,3803.2894828,N,10613.2605547,E,4,23,0.7,1118.3344,M,-41.631,M,00,0004*42
$GPGGA,073603.80,3803.2894483,N,10613.2605575,E,4,23,0.7,1118.3344,M,-41.631,M,00,0004*44
$GPGGA,073603.85,3803.2894127,N,10613.2605632,E,4,23,0.7,1118.3407,M,-41.631,M,00,0004*4A
$GPGGA,073603.90,3803.2893766,N,10613.2605655,E,4,23,0.7,1118.3415,M,-41.631,M,00,0004*48
$GPGGA,073603.95,3803.2893394,N,10613.2605650,E,4,23,0.7,1118.3470,M,-41.631,M,00,0004*42
$GPGGA,073604.00,3803.2893032,N,10613.2605639,E,4,23,0.7,1118.3474,M,-41.631,M,01,0004*4C
$GPGGA,073604.05,3803.2892668,N,10613.2605639,E,4,23,0.7,1118.3498,M,-41.631,M,01,0004*43
$GPGGA,073604.10,3803.2892311,N,10613.2605617,E,4,23,0.7,1118.3461,M,-41.631,M,00,0004*47
$GPGGA,073604.15,3803.2891957,N,10613.2605593,E,4,23,0.7,1118.3484,M,-41.631,M,00,0004*4D
$GPGGA,073604.20,3803.2891614,N,10613.2605604,E,4,23,0.7,1118.3453,M,-41.631,M,00,0004*44
$GPGGA,073604.25,3803.2891237,N,10613.2605587,E,4,23,0.7,1118.3470,M,-41.631,M,00,0004*4D
$GPGGA,073604.30,3803.2890873,N,10613.2605576,E,4,23,0.7,1118.3483,M,-41.631,M,00,0004*40
$GPGGA,073604.35,3803.2890516,N,10613.2605585,E,4,23,0.7,1118.3465,M,-41.631,M,00,0004*4F
$GPGGA,073604.40,3803.2890148,N,10613.2605565,E,4,23,0.7,1118.3478,M,-41.631,M,00,0004*40
$GPGGA,073604.45,3803.2889756,N,10613.2605549,E,4,23,0.7,1118.3464,M,-41.631,M,00,0004*47
$GPGGA,073604.50,3803.2889345,N,10613.2605520,E,4,23,0.7,1118.3457,M,-41.631,M,00,0004*4A
$GPGGA,073604.55,3803.2888960,N,10613.2605503,E,4,23,0.7,1118.3442,M,-41.631,M,00,0004*46
$GPGGA,073604.60,3803.2888551,N,10613.2605456,E,4,23,0.7,1118.3460,M,-41.631,M,00,0004*4F
$GPGGA,073604.65,3803.2888168,N,10613.2605417,E,4,23,0.7,1118.3439,M,-41.631,M,00,0004*4D
$GPGGA,073604.70,3803.2887783,N,10613.2605345,E,4,23,0.7,1118.3445,M,-41.631,M,00,0004*4E
$GPGGA,073604.75,3803.2887390,N,10613.2605244,E,4,23,0.7,1118.3458,M,-41.631,M,00,0004*41
$GPGGA,073604.80,3803.2887003,N,10613.2605138,E,4,23,0.7,1118.3468,M,-41.631,M,00,0004*49
$GPGGA,073604.85,3803.2886636,N,10613.2605055,E,4,23,0.7,1118.3415,M,-41.631,M,00,0004*4D
$GPGGA,073604.90,3803.2886245,N,10613.2604943,E,4,23,0.7,1118.3460,M,-41.631,M,00,0004*44
$GPGGA,073604.95,3803.2885871,N,10613.2604825,E,4,23,0.7,1118.3480,M,-41.631,M,00,0004*40
$GPGGA,073605.00,3803.2885493,N,10613.2604705,E,4,23,0.7,1118.3509,M,-41.631,M,01,0004*41
$GPGGA,073605.05,3803.2885119,N,10613.2604585,E,4,23,0.7,1118.3503,M,-41.631,M,01,0004*43
$GPGGA,073605.10,3803.2884745,N,10613.2604455,E,4,23,0.7,1118.3527,M,-41.631,M,00,0004*42
$GPGGA,073605.15,3803.2884358,N,10613.2604347,E,4,23,0.7,1118.3498,M,-41.631,M,00,0004*4E
$GPGGA,073605.20,3803.2883961,N,10613.2604241,E,4,23,0.7,1118.3480,M,-41.631,M,00,0004*41
$GPGGA,073605.25,3803.2883546,N,10613.2604163,E,4,23,0.7,1118.3472,M,-41.631,M,00,0004*43
$GPGGA,073605.30,3803.2883147,N,10613.2604067,E,4,23,0.7,1118.3487,M,-41.631,M,00,0004*4D
$GPGGA,073605.35,3803.2882750,N,10613.2603978,E,4,23,0.7,1118.3475,M,-41.631,M,00,0004*44
$GPGGA,073605.40,3803.2882346,N,10613.2603854,E,4,23,0.7,1118.3486,M,-41.631,M,00,0004*46
$GPGGA,073605.45,3803.2881956,N,10613.2603690,E,4,23,0.7,1118.3476,M,-41.631,M,00,0004*42
$GPGGA,073605.50,3803.2881558,N,10613.2603522,E,4,23,0.7,1118.3465,M,-41.631,M,00,0004*4C
$GPGGA,073605.55,3803.2881197,N,10613.2603358,E,4,23,0.7,1118.3433,M,-41.631,M,00,0004*46
$GPGGA,073605.60,3803.2880822,N,10613.2603195,E,4,23,0.7,1118.3415,M,-41.631,M,00,0004*41
$GPGGA,073605.65,3803.2880448,N,10613.2603004,E,4,23,0.7,1118.3421,M,-41.631,M,00,0004*4A
$GPGGA,073605.70,3803.2880070,N,10613.2602831,E,4,23,0.7,1118.3418,M,-41.631,M,00,0004*44
$GPGGA,073605.75,3803.2879705,N,10613.2602653,E,4,23,0.7,1118.3456,M,-41.631,M,00,0004*42
$GPGGA,073605.80,3803.2879337,N,10613.2602458,E,4,23,0.7,1118.3485,M,-41.631,M,00,0004*4A
$GPGGA,073605.85,3803.2878959,N,10613.2602260,E,4,23,0.7,1118.3493,M,-41.631,M,00,0004*46
$GPGGA,073605.90,3803.2878575,N,10613.2602082,E,4,23,0.7,1118.3498,M,-41.631,M,00,0004*45
$GPGGA,073605.95,3803.2878197,N,10613.2601929,E,4,23,0.7,1118.3473,M,-41.631,M,00,0004*46
$GPGGA,073606.00,3803.2877813,N,10613.2601759,E,4,23,0.7,1118.3460,M,-41.631,M,01,0004*49
$GPGGA,073606.05,3803.2877436,N,10613.2601565,E,4,23,0.7,1118.3435,M,-41.631,M,01,0004*4A
$GPGGA,073606.10,3803.2877050,N,10613.2601383,E,4,23,0.7,1118.3446,M,-41.631,M,00,0004*41
$GPGGA,073606.15,3803.2876672,N,10613.2601184,E,4,23,0.7,1118.3457,M,-41.631,M,00,0004*46
$GPGGA,073606.20,3803.2876308,N,10613.2600969,E,4,23,0.7,1118.3416,M,-41.631,M,00,0004*47
$GPGGA,073606.25,3803.2875933,N,10613.2600759,E,4,23,0.7,1118.3418,M,-41.631,M,00,0004*40
$GPGGA,073606.30,3803.2875580,N,10613.2600572,E,4,23,0.7,1118.3466,M,-41.631,M,00,0004*42
$GPGGA,073606.35,3803.2875225,N,10613.2600348,E,4,23,0.7,1118.3487,M,-41.631,M,00,0004*4F
$GPGGA,073606.40,3803.2874874,N,10613.2600124,E,4,23,0.7,1118.3480,M,-41.631,M,00,0004*4D
$GPGGA,073606.45,3803.2874522,N,10613.2599896,E,4,23,0.7,1118.3502,M,-41.631,M,00,0004*4E
$GPGGA,073606.50,3803.2874187,N,10613.2599625,E,4,23,0.7,1118.3487,M,-41.631,M,00,0004*4B
$GPGGA,073606.55,3803.2873844,N,10613.2599370,E,4,23,0.7,1118.3473,M,-41.631,M,00,0004*41
$GPGGA,073606.60,3803.2873503,N,10613.2599129,E,4,23,0.7,1118.3515,M,-41.631,M,00,0004*46
$GPGGA,073606.65,3803.2873146,N,10613.2598886,E,4,23,0.7,1118.3531,M,-41.631,M,00,0004*4D
$GPGGA,073606.70,3803.2872793,N,10613.2598611,E,4,23,0.7,1118.3515,M,-41.631,M,00,0004*40
$GPGGA,073606.75,3803.2872424,N,10613.2598345,E,4,23,0.7,1118.3539,M,-41.631,M,00,0004*40
$GPGGA,073606.80,3803.2872049,N,10613.2598099,E,4,23,0.7,1118.3531,M,-41.631,M,00,0004*4F
$GPGGA,073606.85,3803.2871682,N,10613.2597836,E,4,23,0.7,1118.3522,M,-41.631,M,00,0004*48
$GPGGA,073606.90,3803.2871316,N,10613.2597594,E,4,23,0.7,1118.3518,M,-41.631,M,00,0004*48
$GPGGA,073606.95,3803.2870963,N,10613.2597340,E,4,23,0.7,1118.3520,M,-41.631,M,00,0004*40
$GPGGA,073607.00,3803.2870618,N,10613.2597064,E,4,23,0.7,1118.3517,M,-41.631,M,01,0004*4E
$GPGGA,073607.05,3803.2870278,N,10613.2596769,E,4,23,0.7,1118.3522,M,-41.631,M,01,0004*44
$GPGGA,073607.10,3803.2869963,N,10613.2596443,E,4,23,0.7,1118.3499,M,-41.631,M,00,0004*42
$GPGGA,073607.15,3803.2869642,N,10613.2596129,E,4,23,0.7,1118.3504,M,-41.631,M,00,0004*47
$GPGGA,073607.20,3803.2869307,N,10613.2595806,E,4,23,0.7,1118.3521,M,-41.631,M,00,0004*45
$GPGGA,073607.25,3803.2868973,N,10613.2595486,E,4,23,0.7,1118.3530,M,-41.631,M,00,0004*4C
$GPGGA,073607.30,3803.2868651,N,10613.2595173,E,4,23,0.7,1118.3543,M,-41.631,M,00,0004*4C
$GPGGA,073607.35,3803.2868317,N,10613.2594843,E,4,23,0.7,1118.3531,M,-41.631,M,00,0004*40
$GPGGA,073607.40,3803.2867998,N,10613.2594525,E,4,23,0.7,1118.3520,M,-41.631,M,00,0004*4D
$GPGGA,073607.45,3803.2867692,N,10613.2594172,E,4,23,0.7,1118.3474,M,-41.631,M,00,0004*4B
$GPGGA,073607.50,3803.2867383,N,10613.2593810,E,4,23,0.7,1118.3533,M,-41.631,M,00,0004*42
$GPGGA,073607.55,3803.2867084,N,10613.2593447,E,4,23,0.7,1118.3565,M,-41.631,M,00,0004*4E
$GPGGA,073607.60,3803.2866774,N,10613.2593107,E,4,23,0.7,1118.3553,M,-41.631,M,00,0004*45
$GPGGA,073607.65,3803.2866466,N,10613.2592756,E,4,23,0.7,1118.3596,M,-41.631,M,00,0004*4A
$GPGGA,073607.70,3803.2866193,N,10613.2592403,E,4,23,0.7,1118.3597,M,-41.631,M,00,0004*43
$GPGGA,073607.75,3803.2865922,N,10613.2592066,E,4,23,0.7,1118.3569,M,-41.631,M,00,0004*41
$GPGGA,073607.80,3803.2865643,N,10613.2591691,E,4,23,0.7,1118.3511,M,-41.631,M,00,0004*41
$GPGGA,073607.85,3803.2865384,N,10613.2591307,E,4,23,0.7,1118.3442,M,-41.631,M,00,0004*47
$GPGGA,073607.90,3803.2865142,N,10613.2590938,E,4,23,0.7,1118.3434,M,-41.631,M,00,0004*4D
$GPGGA,073607.95,3803.2864878,N,10613.2590554,E,4,23,0.7,1118.3405,M,-41.631,M,00,0004*4D
$GPGGA,073608.00,3803.2864596,N,10613.2590156,E,4,23,0.7,1118.3462,M,-41.631,M,01,0004*45
$GPGGA,073608.05,3803.2864317,N,10613.2589725,E,4,23,0.7,1118.3512,M,-41.631,M,01,0004*43
$GPGGA,073608.10,3803.2864044,N,10613.2589311,E,4,23,0.7,1118.3526,M,-41.631,M,00,0004*47
$GPGGA,073608.15,3803.2863775,N,10613.2588927,E,4,23,0.7,1118.3530,M,-41.631,M,00,0004*49
$GPGGA,073608.20,3803.2863503,N,10613.2588551,E,4,23,0.7,1118.3505,M,-41.631,M,00,0004*47
$GPGGA,073608.25,3803.2863252,N,10613.2588171,E,4,23,0.7,1118.3496,M,-41.631,M,00,0004*4C
$GPGGA,073608.30,3803.2862999,N,10613.2587783,E,4,23,0.7,1118.3492,M,-41.631,M,00,0004*45
$GPGGA,073608.35,3803.2862737,N,10613.2587426,E,4,23,0.7,1118.3549,M,-41.631,M,00,0004*41
$GPGGA,073608.40,3803.2862477,N,10613.2587043,E,4,23,0.7,1118.3548,M,-41.631,M,00,0004*42
$GPGGA,073608.45,3803.2862234,N,10613.2586654,E,4,23,0.7,1118.3536,M,-41.631,M,00,0004*4E
$GPGGA,073608.50,3803.2861991,N,10613.2586268,E,4,23,0.7,1118.3575,M,-41.631,M,00,0004*41
$GPGGA,073608.55,3803.2861739,N,10613.2585863,E,4,23,0.7,1118.3548,M,-41.631,M,00,0004*44
$GPGGA,073608.60,3803.2861505,N,10613.2585417,E,4,23,0.7,1118.3548,M,-41.631,M,00,0004*40
$GPGGA,073608.65,3803.2861282,N,10613.2584971,E,4,23,0.7,1118.3503,M,-41.631,M,00,0004*4E
$GPGGA,073608.70,3803.2861052,N,10613.2584537,E,4,23,0.7,1118.3514,M,-41.631,M,00,0004*4D
$GPGGA,073608.75,3803.2860851,N,10613.2584121,E,4,23,0.7,1118.3470,M,-41.631,M,00,0004*42
$GPGGA,073608.80,3803.2860634,N,10613.2583721,E,4,23,0.7,1118.3487,M,-41.631,M,00,0004*4C
$GPGGA,073608.85,3803.2860432,N,10613.2583329,E,4,23,0.7,1118.3484,M,-41.631,M,00,0004*42
$GPGGA,073608.90,3803.2860237,N,10613.2582928,E,4,23,0.7,1118.3453,M,-41.631,M,00,0004*45
$GPGGA,073608.95,3803.2860061,N,10613.2582550,E,4,23,0.7,1118.3460,M,-41.631,M,00,0004*42
$GPGGA,073609.00,3803.2859870,N,10613.2582169,E,4,23,0.7,1118.3475,M,-41.631,M,01,0004*46
$GPGGA,073609.05,3803.2859668,N,10613.2581790,E,4,23,0.7,1118.3532,M,-41.631,M,01,0004*45
$GPGGA,073609.10,3803.2859504,N,10613.2581382,E,4,23,0.8,1118.3522,M,-41.631,M,00,0004*40
$GPGGA,073609.15,3803.2859328,N,10613.2580977,E,4,23,0.8,1118.3505,M,-41.631,M,00,0004*49
$GPGGA,073609.20,3803.2859159,N,10613.2580563,E,4,23,0.8,1118.3467,M,-41.631,M,00,0004*47
$GPGGA,073609.25,3803.2859007,N,10613.2580164,E,4,23,0.8,1118.3422,M,-41.631,M,00,0004*4A
$GPGGA,073609.30,3803.2858847,N,10613.2579747,E,4,23,0.8,1118.3403,M,-41.631,M,00,0004*41
$GPGGA,073609.35,3803.2858690,N,10613.2579349,E,4,23,0.8,1118.3444,M,-41.631,M,00,0004*49
$GPGGA,073609.40,3803.2858547,N,10613.2578959,E,4,23,0.7,1118.3452,M,-41.631,M,00,0004*40
$GPGGA,073609.45,3803.2858399,N,10613.2578543,E,4,23,0.7,1118.3404,M,-41.631,M,00,0004*44
$GPGGA,073609.50,3803.2858246,N,10613.2578142,E,4,23,0.8,1118.3446,M,-41.631,M,00,0004*4F
$GPGGA,073609.55,3803.2858113,N,10613.2577720,E,4,23,0.8,1118.3478,M,-41.631,M,00,0004*49
$GPGGA,073609.60,3803.2857997,N,10613.2577298,E,4,23,0.8,1118.3436,M,-41.631,M,00,0004*48
$GPGGA,073609.65,3803.2857882,N,10613.2576903,E,4,23,0.8,1118.3488,M,-41.631,M,00,0004*45
$GPGGA,073609.70,3803.2857755,N,10613.2576481,E,4,23,0.8,1118.3512,M,-41.631,M,00,0004*41
$GPGGA,073609.75,3803.2857650,N,10613.2576016,E,4,23,0.8,1118.3464,M,-41.631,M,00,0004*4A
$GPGGA,073609.80,3803.2857527,N,10613.2575553,E,4,23,0.7,1118.3450,M,-41.631,M,00,0004*4C
$GPGGA,073609.85,3803.2857423,N,10613.2575076,E,4,23,0.7,1118.3391,M,-41.631,M,00,0004*44
$GPGGA,073609.90,3803.2857298,N,10613.2574605,E,4,23,0.7,1118.3391,M,-41.631,M,00,0004*45
$GPGGA,073609.95,3803.2857161,N,10613.2574176,E,4,23,0.7,1118.3365,M,-41.631,M,00,0004*4D
$GPGGA,073610.00,3803.2857013,N,10613.2573740,E,4,23,0.7,1118.3316,M,-41.631,M,01,0004*4C
$GPGGA,073610.05,3803.2856825,N,10613.2573291,E,4,23,0.7,1118.3239,M,-41.631,M,01,0004*40
$GPGGA,073610.10,3803.2856641,N,10613.2572922,E,4,23,0.7,1118.3263,M,-41.631,M,00,0004*44
$GPGGA,073610.15,3803.2856474,N,10613.2572577,E,4,23,0.7,1118.3247,M,-41.631,M,00,0004*4F
$GPGGA,073610.20,3803.2856345,N,10613.2572262,E,4,23,0.7,1118.3251,M,-41.631,M,00,0004*48
$GPGGA,073610.25,3803.2856249,N,10613.2571929,E,4,23,0.7,1118.3269,M,-41.631,M,00,0004*4C
$GPGGA,073610.30,3803.2856181,N,10613.2571579,E,4,23,0.7,1118.3260,M,-41.631,M,00,0004*4F
$GPGGA,073610.35,3803.2856084,N,10613.2571236,E,4,23,0.7,1118.3289,M,-41.631,M,00,0004*45
$GPGGA,073610.40,3803.2856010,N,10613.2570872,E,4,23,0.7,1118.3265,M,-41.631,M,00,0004*43
$GPGGA,073610.45,3803.2855940,N,10613.2570489,E,4,23,0.7,1118.3309,M,-41.631,M,00,0004*4A
$GPGGA,073610.50,3803.2855858,N,10613.2570121,E,4,23,0.7,1118.3304,M,-41.631,M,00,0004*4C
$GPGGA,073610.55,3803.2855779,N,10613.2569767,E,4,23,0.7,1118.3255,M,-41.631,M,00,0004*4C
$GPGGA,073610.60,3803.2855687,N,10613.2569446,E,4,23,0.7,1118.3286,M,-41.631,M,00,0004*44
$GPGGA,073610.65,3803.2855600,N,10613.2569137,E,4,23,0.7,1118.3299,M,-41.631,M,00,0004*43
$GPGGA,073610.70,3803.2855528,N,10613.2568774,E,4,23,0.7,1118.3278,M,-41.631,M,00,0004*41
$GPGGA,073610.75,3803.2855455,N,10613.2568425,E,4,23,0.7,1118.3301,M,-41.631,M,00,0004*47
$GPGGA,073610.80,3803.2855394,N,10613.2568015,E,4,23,0.7,1118.3324,M,-41.631,M,00,0004*47
$GPGGA,073610.85,3803.2855309,N,10613.2567618,E,4,23,0.7,1118.3361,M,-41.631,M,00,0004*43
$GPGGA,073610.90,3803.2855200,N,10613.2567195,E,4,23,0.7,1118.3350,M,-41.631,M,00,0004*4F
$GPGGA,073610.95,3803.2855119,N,10613.2566767,E,4,23,0.7,1118.3383,M,-41.631,M,00,0004*45
$GPGGA,073611.00,3803.2855030,N,10613.2566318,E,4,23,0.7,1118.3383,M,-41.631,M,01,0004*4F
$GPGGA,073611.05,3803.2854959,N,10613.2565855,E,4,23,0.7,1118.3331,M,-41.631,M,01,0004*45
$GPGGA,073611.10,3803.2854907,N,10613.2565374,E,4,23,0.7,1118.3270,M,-41.631,M,00,0004*47
$GPGGA,073611.15,3803.2854809,N,10613.2564959,E,4,23,0.7,1118.3272,M,-41.631,M,00,0004*4B
$GPGGA,073611.20,3803.2854720,N,10613.2564496,E,4,23,0.8,1118.3183,M,-41.631,M,00,0004*45
$GPGGA,073611.25,3803.2854650,N,10613.2564075,E,4,23,0.8,1118.3115,M,-41.631,M,00,0004*40
$GPGGA,073611.30,3803.2854570,N,10613.2563636,E,4,22,0.8,1118.3136,M,-41.631,M,00,0004*43
$GPGGA,073611.35,3803.2854495,N,10613.2563208,E,4,22,0.8,1118.3127,M,-41.631,M,00,0004*45
$GPGGA,073611.40,3803.2854414,N,10613.2562812,E,4,22,0.8,1118.3124,M,-41.631,M,00,0004*4D
$GPGGA,073611.45,3803.2854330,N,10613.2562391,E,4,22,0.8,1118.3142,M,-41.631,M,00,0004*49
$GPGGA,073611.50,3803.2854239,N,10613.2561961,E,4,22,0.8,1118.3216,M,-41.631,M,00,0004*41
$GPGGA,073611.55,3803.2854149,N,10613.2561525,E,4,22,0.8,1118.3249,M,-41.631,M,00,0004*46
$GPGGA,073611.60,3803.2854075,N,10613.2561057,E,4,22,0.8,1118.3281,M,-41.631,M,00,0004*4A
$GPGGA,073611.65,3803.2853983,N,10613.2560570,E,4,22,0.8,1118.3323,M,-41.631,M,00,0004*40
$GPGGA,073611.70,3803.2853909,N,10613.2560049,E,4,22,0.8,1118.3329,M,-41.631,M,00,0004*43
$GPGGA,073611.75,3803.2853823,N,10613.2559514,E,4,22,0.8,1118.3358,M,-41.631,M,00,0004*4E
$GPGGA,073611.80,3803.2853717,N,10613.2558941,E,4,22,0.8,1118.3415,M,-41.631,M,00,0004*4F
$GPGGA,073611.85,3803.2853618,N,10613.2558344,E,4,22,0.8,1118.3404,M,-41.631,M,00,0004*4B
$GPGGA,073611.90,3803.2853504,N,10613.2557776,E,4,22,0.8,1118.3400,M,-41.631,M,00,0004*4F
$GPGGA,073611.95,3803.2853414,N,10613.2557190,E,4,22,0.8,1118.3382,M,-41.631,M,00,0004*49
$GPGGA,073612.00,3803.2853337,N,10613.2556609,E,4,22,0.8,1118.3374,M,-41.631,M,01,0004*4E
$GPGGA,073612.05,3803.2853253,N,10613.2556011,E,4,22,0.8,1118.3432,M,-41.631,M,01,0004*42
$GPGGA,073612.10,3803.2853162,N,10613.2555391,E,4,22,0.8,1118.3439,M,-41.631,M,00,0004*45
$GPGGA,073612.15,3803.2853091,N,10613.2554731,E,4,22,0.8,1118.3383,M,-41.631,M,00,0004*44
$GPGGA,073612.20,3803.2853001,N,10613.2554091,E,4,22,0.8,1118.3342,M,-41.631,M,00,0004*4B
$GPGGA,073612.25,3803.2852903,N,10613.2553437,E,4,22,0.8,1118.3313,M,-41.631,M,00,0004*4F
$GPGGA,073612.30,3803.2852787,N,10613.2552833,E,4,22,0.8,1118.3366,M,-41.632,M,00,0004*41
$GPGGA,073612.35,3803.2852656,N,10613.2552251,E,4,22,0.8,1118.3362,M,-41.632,M,00,0004*43
$GPGGA,073612.40,3803.2852544,N,10613.2551705,E,4,22,0.8,1118.3416,M,-41.632,M,00,0004*42
$GPGGA,073612.45,3803.2852431,N,10613.2551096,E,4,22,0.8,1118.3494,M,-41.632,M,00,0004*43
$GPGGA,073612.50,3803.2852327,N,10613.2550475,E,4,22,0.8,1118.3519,M,-41.632,M,00,0004*4B
$GPGGA,073612.55,3803.2852219,N,10613.2549833,E,4,22,0.8,1118.3554,M,-41.632,M,00,0004*4D
$GPGGA,073612.60,3803.2852150,N,10613.2549186,E,4,22,0.8,1118.3504,M,-41.632,M,00,0004*47
$GPGGA,073612.65,3803.2852074,N,10613.2548548,E,4,22,0.8,1118.3423,M,-41.632,M,00,0004*46
$GPGGA,073612.70,3803.2852004,N,10613.2547954,E,4,22,0.8,1118.3341,M,-41.632,M,00,0004*48
$GPGGA,073612.75,3803.2851940,N,10613.2547356,E,4,22,0.8,1118.3309,M,-41.632,M,00,0004*43
$GPGGA,073612.80,3803.2851862,N,10613.2546741,E,4,22,0.8,1118.3270,M,-41.632,M,00,0004*44
$GPGGA,073612.85,3803.2851784,N,10613.2546124,E,4,22,0.8,1118.3302,M,-41.632,M,00,0004*47
$GPGGA,073612.90,3803.2851710,N,10613.2545524,E,4,22,0.8,1118.3315,M,-41.632,M,00,0004*4F
$GPGGA,073612.95,3803.2851611,N,10613.2544945,E,4,22,0.8,1118.3320,M,-41.632,M,00,0004*46
$GPGGA,073613.00,3803.2851529,N,10613.2544332,E,4,22,0.8,1118.3302,M,-41.632,M,01,0004*48
$GPGGA,073613.05,3803.2851438,N,10613.2543716,E,4,22,0.8,1118.3319,M,-41.632,M,01,0004*43
$GPGGA,073613.10,3803.2851366,N,10613.2543041,E,4,22,0.8,1118.3349,M,-41.632,M,00,0004*4A
$GPGGA,073613.15,3803.2851298,N,10613.2542371,E,4,22,0.8,1118.3382,M,-41.632,M,00,0004*49
$GPGGA,073613.20,3803.2851241,N,10613.2541761,E,4,22,0.8,1118.3372,M,-41.632,M,00,0004*42
$GPGGA,073613.25,3803.2851182,N,10613.2541145,E,4,22,0.8,1118.3397,M,-41.632,M,00,0004*40
$GPGGA,073613.30,3803.2851144,N,10613.2540542,E,4,22,0.8,1118.3370,M,-41.632,M,00,0004*45
$GPGGA,073613.35,3803.2851096,N,10613.2539914,E,4,22,0.8,1118.3362,M,-41.632,M,00,0004*4C
$GPGGA,073613.40,3803.2851046,N,10613.2539301,E,4,22,0.8,1118.3340,M,-41.632,M,00,0004*4D
$GPGGA,073613.45,3803.2851000,N,10613.2538704,E,4,22,0.8,1118.3323,M,-41.632,M,00,0004*4F
$GPGGA,073613.50,3803.2850969,N,10613.2538059,E,4,22,0.8,1118.3275,M,-41.632,M,00,0004*41
$GPGGA,073613.55,3803.2850920,N,10613.2537417,E,4,22,0.8,1118.3242,M,-41.632,M,00,0004*4C
$GPGGA,073613.60,3803.2850857,N,10613.2536797,E,4,22,0.8,1118.3248,M,-41.632,M,00,0004*4B
$GPGGA,073613.65,3803.2850773,N,10613.2536183,E,4,22,0.8,1118.3313,M,-41.632,M,00,0004*4B
$GPGGA,073613.70,3803.2850707,N,10613.2535571,E,4,22,0.8,1118.3369,M,-41.632,M,00,0004*4B
$GPGGA,073613.75,3803.2850642,N,10613.2534944,E,4,22,0.8,1118.3407,M,-41.632,M,00,0004*4A
$GPGGA,073613.80,3803.2850576,N,10613.2534320,E,4,22,0.8,1118.3419,M,-41.632,M,00,0004*43
$GPGGA,073613.85,3803.2850518,N,10613.2533707,E,4,22,0.8,1118.3442,M,-41.632,M,00,0004*46
$GPGGA,073613.90,3803.2850473,N,10613.2533103,E,4,22,0.8,1118.3428,M,-41.632,M,00,0004*40
$GPGGA,073613.95,3803.2850435,N,10613.2532511,E,4,22,0.8,1118.3459,M,-41.632,M,00,0004*47
$GPGGA,073614.00,3803.2850396,N,10613.2531897,E,4,22,0.8,1118.3475,M,-41.632,M,01,0004*4D
$GPGGA,073614.05,3803.2850355,N,10613.2531277,E,4,22,0.8,1118.3413,M,-41.632,M,01,0004*43
$GPGGA,073614.10,3803.2850349,N,10613.2530644,E,4,22,0.8,1118.3390,M,-41.632,M,00,0004*42
$GPGGA,073614.15,3803.2850355,N,10613.2529996,E,4,22,0.8,1118.3376,M,-41.632,M,00,0004*4A
$GPGGA,073614.20,3803.2850325,N,10613.2529390,E,4,22,0.8,1118.3362,M,-41.632,M,00,0004*42
$GPGGA,073614.25,3803.2850272,N,10613.2528789,E,4,22,0.8,1118.3372,M,-41.632,M,00,0004*48
$GPGGA,073614.30,3803.2850200,N,10613.2528149,E,4,22,0.8,1118.3458,M,-41.632,M,00,0004*4C
$GPGGA,073614.35,3803.2850144,N,10613.2527498,E,4,22,0.8,1118.3489,M,-41.632,M,00,0004*40
$GPGGA,073614.40,3803.2850099,N,10613.2526835,E,4,22,0.8,1118.3488,M,-41.632,M,00,0004*48
$GPGGA,073614.45,3803.2850098,N,10613.2526133,E,4,22,0.8,1118.3487,M,-41.632,M,00,0004*4C
$GPGGA,073614.50,3803.2850148,N,10613.2525410,E,4,22,0.8,1118.3521,M,-41.632,M,00,0004*4E
$GPGGA,073614.55,3803.2850186,N,10613.2524734,E,4,22,0.8,1118.3517,M,-41.632,M,00,0004*48
$GPGGA,073614.60,3803.2850219,N,10613.2524082,E,4,22,0.8,1118.3469,M,-41.632,M,00,0004*49
$GPGGA,073614.65,3803.2850214,N,10613.2523468,E,4,22,0.8,1118.3434,M,-41.632,M,00,0004*4E
$GPGGA,073614.70,3803.2850197,N,10613.2522885,E,4,22,0.8,1118.3453,M,-41.632,M,00,0004*4D
$GPGGA,073614.75,3803.2850198,N,10613.2522276,E,4,22,0.8,1118.3463,M,-41.632,M,00,0004*42
$GPGGA,073614.80,3803.2850181,N,10613.2521672,E,4,22,0.8,1118.3512,M,-41.632,M,00,0004*44
$GPGGA,073614.85,3803.2850143,N,10613.2521077,E,4,22,0.8,1118.3565,M,-41.632,M,00,0004*4C
$GPGGA,073614.90,3803.2850095,N,10613.2520428,E,4,22,0.8,1118.3606,M,-41.632,M,00,0004*4B
$GPGGA,073614.95,3803.2850039,N,10613.2519778,E,4,22,0.8,1118.3607,M,-41.632,M,00,0004*45
$GPGGA,073615.00,3803.2849995,N,10613.2519129,E,4,22,0.8,1118.3553,M,-41.632,M,01,0004*4E
$GPGGA,073615.05,3803.2849929,N,10613.2518541,E,4,22,0.8,1118.3498,M,-41.632,M,01,0004*41
$GPGGA,073615.10,3803.2849866,N,10613.2517945,E,4,22,0.8,1118.3453,M,-41.632,M,00,0004*4E
$GPGGA,073615.15,3803.2849796,N,10613.2517302,E,4,22,0.8,1118.3486,M,-41.632,M,00,0004*4A
$GPGGA,073615.20,3803.2849807,N,10613.2516630,E,4,22,0.8,1118.3442,M,-41.632,M,00,0004*46
$GPGGA,073615.25,3803.2849831,N,10613.2515981,E,4,22,0.8,1118.3394,M,-41.632,M,00,0004*4C
$GPGGA,073615.30,3803.2849838,N,10613.2515326,E,4,22,0.8,1118.3347,M,-41.632,M,00,0004*48
$GPGGA,073615.35,3803.2849814,N,10613.2514672,E,4,22,0.8,1118.3316,M,-41.632,M,00,0004*42
$GPGGA,073615.40,3803.2849785,N,10613.2514018,E,4,22,0.8,1118.3201,M,-41.632,M,00,0004*4A
$GPGGA,073615.45,3803.2849805,N,10613.2513393,E,4,22,0.8,1118.3130,M,-41.632,M,00,0004*4E
$GPGGA,073615.50,3803.2849767,N,10613.2512763,E,4,22,0.8,1118.3157,M,-41.632,M,00,0004*4A
$GPGGA,073615.55,3803.2849704,N,10613.2512176,E,4,22,0.8,1118.3204,M,-41.632,M,00,0004*4D
$GPGGA,073615.60,3803.2849625,N,10613.2511602,E,4,22,0.8,1118.3219,M,-41.632,M,00,0004*42
$GPGGA,073615.65,3803.2849544,N,10613.2511024,E,4,22,0.8,1118.3126,M,-41.632,M,00,0004*4E
$GPGGA,073615.70,3803.2849487,N,10613.2510468,E,4,22,0.8,1118.3138,M,-41.632,M,00,0004*46
$GPGGA,073615.75,3803.2849477,N,10613.2509921,E,4,22,0.8,1118.3111,M,-41.632,M,00,0004*4F
$GPGGA,073615.80,3803.2849467,N,10613.2509376,E,4,22,0.8,1118.3134,M,-41.632,M,00,0004*4B
$GPGGA,073615.85,3803.2849477,N,10613.2508817,E,4,22,0.8,1118.3134,M,-41.632,M,00,0004*42
$GPGGA,073615.90,3803.2849486,N,10613.2508239,E,4,22,0.8,1118.3165,M,-41.632,M,00,0004*4A
$GPGGA,073615.95,3803.2849522,N,10613.2507666,E,4,22,0.8,1118.3186,M,-41.632,M,00,0004*4C
$GPGGA,073616.00,3803.2849518,N,10613.2507092,E,4,22,0.8,1118.3275,M,-41.632,M,01,0004*49
$GPGGA,073616.05,3803.2849516,N,10613.2506481,E,4,22,0.8,1118.3321,M,-41.632,M,01,0004*45
$GPGGA,073616.10,3803.2849519,N,10613.2505901,E,4,22,0.8,1118.3385,M,-41.632,M,00,0004*47
$GPGGA,073616.15,3803.2849535,N,10613.2505279,E,4,22,0.8,1118.3347,M,-41.632,M,00,0004*46
$GPGGA,073616.20,3803.2849534,N,10613.2504667,E,4,22,0.8,1118.3370,M,-41.632,M,00,0004*4F
$GPGGA,073616.25,3803.2849523,N,10613.2504044,E,4,22,0.8,1118.3403,M,-41.632,M,00,0004*48
$GPGGA,073616.30,3803.2849510,N,10613.2503447,E,4,22,0.8,1118.3428,M,-41.632,M,00,0004*45
$GPGGA,073616.35,3803.2849509,N,10613.2502859,E,4,22,0.8,1118.3380,M,-41.632,M,00,0004*4F
$GPGGA,073616.40,3803.2849547,N,10613.2502254,E,4,22,0.8,1118.3369,M,-41.632,M,00,0004*47
$GPGGA,073616.45,3803.2849597,N,10613.2501644,E,4,22,0.8,1118.3387,M,-41.632,M,00,0004*49
$GPGGA,073616.50,3803.2849645,N,10613.2501053,E,4,22,0.8,1118.3464,M,-41.632,M,00,0004*4B
$GPGGA,073616.55,3803.2849705,N,10613.2500477,E,4,22,0.8,1118.3463,M,-41.632,M,00,0004*4F
$GPGGA,073616.60,3803.2849757,N,10613.2499864,E,4,22,0.8,1118.3477,M,-41.632,M,00,0004*44
$GPGGA,073616.65,3803.2849794,N,10613.2499214,E,4,22,0.8,1118.3562,M,-41.632,M,00,0004*46
$GPGGA,073616.70,3803.2849825,N,10613.2498546,E,4,22,0.8,1118.3622,M,-41.632,M,00,0004*41
$GPGGA,073616.75,3803.2849834,N,10613.2497897,E,4,22,0.8,1118.3682,M,-41.632,M,00,0004*40
$GPGGA,073616.80,3803.2849837,N,10613.2497270,E,4,22,0.8,1118.3660,M,-41.632,M,00,0004*46
$GPGGA,073616.85,3803.2849855,N,10613.2496639,E,4,22,0.8,1118.3626,M,-41.632,M,00,0004*4D
$GPGGA,073616.90,3803.2849883,N,10613.2496004,E,4,22,0.8,1118.3564,M,-41.632,M,00,0004*4F
$GPGGA,073616.95,3803.2849946,N,10613.2495359,E,4,22,0.8,1118.3469,M,-41.632,M,00,0004*46
$GPGGA,073617.00,3803.2849993,N,10613.2494704,E,4,22,0.8,1118.3405,M,-41.632,M,01,0004*45
$GPGGA,073617.05,3803.2850039,N,10613.2494043,E,4,22,0.8,1118.3330,M,-41.632,M,01,0004*44
$GPGGA,073617.10,3803.2850063,N,10613.2493372,E,4,22,0.8,1118.3297,M,-41.632,M,00,0004*44
$GPGGA,073617.15,3803.2850116,N,10613.2492742,E,4,22,0.8,1118.3288,M,-41.632,M,00,0004*4A
$GPGGA,073617.20,3803.2850139,N,10613.2492131,E,4,22,0.8,1118.3366,M,-41.632,M,00,0004*42
$GPGGA,073617.25,3803.2850182,N,10613.2491564,E,4,22,0.8,1118.3388,M,-41.632,M,00,0004*40
$GPGGA,073617.30,3803.2850201,N,10613.2490958,E,4,22,0.8,1118.3401,M,-41.632,M,00,0004*48
$GPGGA,073617.35,3803.2850201,N,10613.2490359,E,4,22,0.8,1118.3480,M,-41.632,M,00,0004*4F
$GPGGA,073617.40,3803.2850205,N,10613.2489695,E,4,22,0.8,1118.3485,M,-41.632,M,00,0004*41
$GPGGA,073617.45,3803.2850260,N,10613.2489014,E,4,22,0.8,1118.3446,M,-41.632,M,00,0004*47
$GPGGA,073617.50,3803.2850307,N,10613.2488346,E,4,22,0.8,1118.3431,M,-41.632,M,00,0004*46
$GPGGA,073617.55,3803.2850293,N,10613.2487708,E,4,22,0.8,1118.3341,M,-41.632,M,00,0004*4E
$GPGGA,073617.60,3803.2850271,N,10613.2487050,E,4,22,0.8,1118.3301,M,-41.632,M,00,0004*4A
$GPGGA,073617.65,3803.2850283,N,10613.2486395,E,4,22,0.8,1118.3238,M,-41.632,M,00,0004*42
$GPGGA,073617.70,3803.2850299,N,10613.2485747,E,4,22,0.8,1118.3287,M,-41.632,M,00,0004*41
$GPGGA,073617.75,3803.2850346,N,10613.2485102,E,4,22,0.8,1118.3222,M,-41.632,M,00,0004*4F
$GPGGA,073617.80,3803.2850401,N,10613.2484491,E,4,22,0.8,1118.3260,M,-41.632,M,00,0004*49
$GPGGA,073617.85,3803.2850432,N,10613.2483896,E,4,22,0.8,1118.3283,M,-41.632,M,00,0004*4D
$GPGGA,073617.90,3803.2850453,N,10613.2483302,E,4,22,0.8,1118.3340,M,-41.632,M,00,0004*46
$GPGGA,073617.95,3803.2850518,N,10613.2482670,E,4,22,0.8,1118.3381,M,-41.632,M,00,0004*41
$GPGGA,073618.00,3803.2850593,N,10613.2482046,E,4,22,0.8,1118.3475,M,-41.632,M,01,0004*4F
$GPGGA,073618.05,3803.2850679,N,10613.2481423,E,4,22,0.8,1118.3531,M,-41.632,M,01,0004*48
$GPGGA,073618.10,3803.2850719,N,10613.2480798,E,4,22,0.8,1118.3561,M,-41.632,M,00,0004*4D
$GPGGA,073618.15,3803.2850705,N,10613.2480199,E,4,22,0.8,1118.3574,M,-41.632,M,00,0004*46
$GPGGA,073618.20,3803.2850682,N,10613.2479594,E,4,23,0.7,1118.3639,M,-41.632,M,00,0004*45
$GPGGA,073618.25,3803.2850700,N,10613.2478981,E,4,23,0.7,1118.3575,M,-41.632,M,00,0004*49
$GPGGA,073618.30,3803.2850745,N,10613.2478384,E,4,23,0.7,1118.3519,M,-41.632,M,00,0004*49
$GPGGA,073618.35,3803.2850806,N,10613.2477760,E,4,23,0.7,1118.3441,M,-41.632,M,00,0004*49
$GPGGA,073618.40,3803.2850857,N,10613.2477139,E,4,23,0.7,1118.3335,M,-41.632,M,00,0004*41
$GPGGA,073618.45,3803.2850885,N,10613.2476505,E,4,23,0.7,1118.3335,M,-41.632,M,00,0004*41
$GPGGA,073618.50,3803.2850936,N,10613.2475893,E,4,23,0.7,1118.3383,M,-41.632,M,00,0004*40
$GPGGA,073618.55,3803.2850986,N,10613.2475294,E,4,23,0.7,1118.3413,M,-41.632,M,00,0004*4D
$GPGGA,073618.60,3803.2851048,N,10613.2474717,E,4,23,0.7,1118.3460,M,-41.632,M,00,0004*4A
$GPGGA,073618.65,3803.2851104,N,10613.2474104,E,4,23,0.7,1118.3541,M,-41.632,M,00,0004*40
$GPGGA,073618.70,3803.2851135,N,10613.2473457,E,4,23,0.7,1118.3666,M,-41.632,M,00,0004*44
$GPGGA,073618.75,3803.2851170,N,10613.2472827,E,4,23,0.7,1118.3708,M,-41.632,M,00,0004*43
$GPGGA,073618.80,3803.2851194,N,10613.2472223,E,4,23,0.7,1118.3712,M,-41.632,M,00,0004*46
$GPGGA,073618.85,3803.2851183,N,10613.2471619,E,4,23,0.7,1118.3794,M,-41.632,M,00,0004*45
$GPGGA,073618.90,3803.2851188,N,10613.2471022,E,4,23,0.7,1118.3758,M,-41.632,M,00,0004*44
$GPGGA,073618.95,3803.2851186,N,10613.2470406,E,4,23,0.7,1118.3656,M,-41.632,M,00,0004*43
$GPGGA,073619.00,3803.2851180,N,10613.2469780,E,4,23,0.7,1118.3619,M,-41.632,M,01,0004*47
$GPGGA,073619.05,3803.2851169,N,10613.2469159,E,4,23,0.7,1118.3573,M,-41.632,M,01,0004*48
$GPGGA,073619.10,3803.2851186,N,10613.2468529,E,4,23,0.7,1118.3474,M,-41.632,M,00,0004*48
$GPGGA,073619.15,3803.2851258,N,10613.2467958,E,4,23,0.7,1118.3407,M,-41.632,M,00,0004*4C
$GPGGA,073619.20,3803.2851317,N,10613.2467377,E,4,23,0.7,1118.3324,M,-41.632,M,00,0004*41
$GPGGA,073619.25,3803.2851348,N,10613.2466767,E,4,23,0.7,1118.3279,M,-41.632,M,00,0004*43
$GPGGA,073619.30,3803.2851353,N,10613.2466158,E,4,23,0.7,1118.3257,M,-41.632,M,00,0004*4B
$GPGGA,073619.35,3803.2851386,N,10613.2465553,E,4,23,0.7,1118.3367,M,-41.632,M,00,0004*48
$GPGGA,073619.40,3803.2851415,N,10613.2464948,E,4,23,0.7,1118.3469,M,-41.632,M,00,0004*49
$GPGGA,073619.45,3803.2851447,N,10613.2464326,E,4,23,0.7,1118.3557,M,-41.632,M,00,0004*45
$GPGGA,073619.50,3803.2851477,N,10613.2463714,E,4,23,0.7,1118.3687,M,-41.632,M,00,0004*4E
$GPGGA,073619.55,3803.2851482,N,10613.2463122,E,4,23,0.7,1118.3688,M,-41.632,M,00,0004*4D
$GPGGA,073619.60,3803.2851457,N,10613.2462510,E,4,23,0.7,1118.3606,M,-41.632,M,00,0004*41
$GPGGA,073619.65,3803.2851398,N,10613.2461867,E,4,23,0.7,1118.3558,M,-41.632,M,00,0004*46
$GPGGA,073619.70,3803.2851386,N,10613.2461280,E,4,23,0.7,1118.3516,M,-41.632,M,00,0004*44
$GPGGA,073619.75,3803.2851388,N,10613.2460702,E,4,23,0.7,1118.3384,M,-41.632,M,00,0004*4C
$GPGGA,073619.80,3803.2851412,N,10613.2460129,E,4,23,0.7,1118.3318,M,-41.632,M,00,0004*48
$GPGGA,073619.85,3803.2851458,N,10613.2459579,E,4,23,0.7,1118.3304,M,-41.632,M,00,0004*45
$GPGGA,073619.90,3803.2851470,N,10613.2459035,E,4,23,0.7,1118.3341,M,-41.632,M,00,0004*47
$GPGGA,073619.95,3803.2851467,N,10613.2458471,E,4,23,0.7,1118.3359,M,-41.632,M,00,0004*48
$GPGGA,073620.00,3803.2851485,N,10613.2457894,E,4,23,0.7,1118.3444,M,-41.632,M,01,0004*40
$GPGGA,073620.05,3803.2851509,N,10613.2457321,E,4,23,0.7,1118.3490,M,-41.632,M,01,0004*4C
$GPGGA,073620.10,3803.2851562,N,10613.2456743,E,4,23,0.7,1118.3580,M,-41.632,M,00,0004*45
$GPGGA,073620.15,3803.2851598,N,10613.2456195,E,4,23,0.7,1118.3580,M,-41.632,M,00,0004*48
$GPGGA,073620.20,3803.2851601,N,10613.2455652,E,4,23,0.7,1118.3618,M,-41.632,M,00,0004*40
$GPGGA,073620.25,3803.2851577,N,10613.2455100,E,4,23,0.7,1118.3623,M,-41.632,M,00,0004*4F
$GPGGA,073620.30,3803.2851575,N,10613.2454562,E,4,23,0.7,1118.3587,M,-41.632,M,00,0004*45
$GPGGA,073620.35,3803.2851569,N,10613.2453997,E,4,23,0.7,1118.3566,M,-41.632,M,00,0004*43
$GPGGA,073620.40,3803.2851579,N,10613.2453404,E,4,23,0.7,1118.3512,M,-41.632,M,00,0004*44
$GPGGA,073620.45,3803.2851588,N,10613.2452857,E,4,23,0.7,1118.3509,M,-41.632,M,00,0004*4E
$GPGGA,073620.50,3803.2851617,N,10613.2452311,E,4,23,0.7,1118.3474,M,-41.632,M,00,0004*4D
$GPGGA,073620.55,3803.2851621,N,10613.2451770,E,4,23,0.7,1118.3459,M,-41.632,M,00,0004*42
$GPGGA,073620.60,3803.2851626,N,10613.2451238,E,4,23,0.7,1118.3365,M,-41.632,M,00,0004*42
$GPGGA,073620.65,3803.2851646,N,10613.2450721,E,4,23,0.7,1118.3395,M,-41.632,M,00,0004*42
$GPGGA,073620.70,3803.2851688,N,10613.2450204,E,4,23,0.7,1118.3376,M,-41.632,M,00,0004*4B
$GPGGA,073620.75,3803.2851730,N,10613.2449686,E,4,23,0.7,1118.3387,M,-41.632,M,00,0004*44
$GPGGA,073620.80,3803.2851737,N,10613.2449119,E,4,23,0.7,1118.3457,M,-41.632,M,00,0004*42
$GPGGA,073620.85,3803.2851779,N,10613.2448537,E,4,23,0.7,1118.3452,M,-41.632,M,00,0004*41
$GPGGA,073620.90,3803.2851791,N,10613.2447961,E,4,23,0.7,1118.3480,M,-41.632,M,00,0004*4C
$GPGGA,073620.95,3803.2851815,N,10613.2447400,E,4,23,0.7,1118.3511,M,-41.632,M,00,0004*49
$GPGGA,073621.00,3803.2851819,N,10613.2446807,E,4,23,0.7,1118.3603,M,-41.632,M,01,0004*43
$GPGGA,073621.05,3803.2851847,N,10613.2446197,E,4,23,0.7,1118.3626,M,-41.632,M,01,0004*4A
$GPGGA,073621.10,3803.2851873,N,10613.2445545,E,4,23,0.7,1118.3563,M,-41.632,M,00,0004*42
$GPGGA,073621.15,3803.2851892,N,10613.2444929,E,4,23,0.7,1118.3520,M,-41.632,M,00,0004*48
$GPGGA,073621.20,3803.2851911,N,10613.2444348,E,4,23,0.7,1118.3488,M,-41.632,M,00,0004*4A
$GPGGA,073621.25,3803.2851900,N,10613.2443771,E,4,23,0.7,1118.3432,M,-41.632,M,00,0004*47
$GPGGA,073621.30,3803.2851919,N,10613.2443202,E,4,23,0.7,1118.3327,M,-41.632,M,00,0004*49
$GPGGA,073621.35,3803.2851951,N,10613.2442615,E,4,23,0.7,1118.3348,M,-41.632,M,00,0004*4A
$GPGGA,073621.40,3803.2851975,N,10613.2442048,E,4,23,0.7,1118.3338,M,-41.632,M,00,0004*47
$GPGGA,073621.45,3803.2851992,N,10613.2441485,E,4,23,0.7,1118.3236,M,-41.632,M,00,0004*42
$GPGGA,073621.50,3803.2852024,N,10613.2440926,E,4,23,0.7,1118.3265,M,-41.632,M,00,0004*42
$GPGGA,073621.55,3803.2852075,N,10613.2440413,E,4,23,0.7,1118.3363,M,-41.632,M,00,0004*4F
$GPGGA,073621.60,3803.2852116,N,10613.2439890,E,4,23,0.7,1118.3413,M,-41.632,M,00,0004*44
$GPGGA,073621.65,3803.2852159,N,10613.2439370,E,4,23,0.7,1118.3351,M,-41.632,M,00,0004*4E
$GPGGA,073621.70,3803.2852203,N,10613.2438810,E,4,23,0.7,1118.3473,M,-41.632,M,00,0004*4D
$GPGGA,073621.75,3803.2852241,N,10613.2438239,E,4,23,0.7,1118.3471,M,-41.632,M,00,0004*4D
$GPGGA,073621.80,3803.2852280,N,10613.2437649,E,4,23,0.7,1118.3444,M,-41.632,M,00,0004*40
$GPGGA,073621.85,3803.2852304,N,10613.2437075,E,4,23,0.7,1118.3456,M,-41.632,M,00,0004*42
$GPGGA,073621.90,3803.2852312,N,10613.2436517,E,4,23,0.7,1118.3425,M,-41.632,M,00,0004*45
$GPGGA,073621.95,3803.2852336,N,10613.2435972,E,4,23,0.7,1118.3377,M,-41.632,M,00,0004*4A
$GPGGA,073622.00,3803.2852322,N,10613.2435426,E,4,23,0.7,1118.3392,M,-41.632,M,01,0004*46
$GPGGA,073622.05,3803.2852332,N,10613.2434889,E,4,23,0.7,1118.3394,M,-41.632,M,01,0004*4C
$GPGGA,073622.10,3803.2852346,N,10613.2434344,E,4,23,0.7,1118.3337,M,-41.632,M,00,0004*49
$GPGGA,073622.15,3803.2852391,N,10613.2433802,E,4,23,0.7,1118.3256,M,-41.632,M,00,0004*4E
$GPGGA,073622.20,3803.2852414,N,10613.2433278,E,4,23,0.7,1118.3266,M,-41.632,M,00,0004*46
$GPGGA,073622.25,3803.2852431,N,10613.2432764,E,4,23,0.7,1118.3286,M,-41.632,M,00,0004*43
$GPGGA,073622.30,3803.2852471,N,10613.2432251,E,4,23,0.7,1118.3296,M,-41.632,M,00,0004*41
$GPGGA,073622.35,3803.2852530,N,10613.2431750,E,4,23,0.7,1118.3309,M,-41.632,M,00,0004*40
$GPGGA,073622.40,3803.2852536,N,10613.2431211,E,4,23,0.7,1118.3418,M,-41.632,M,00,0004*43
$GPGGA,073622.45,3803.2852558,N,10613.2430686,E,4,23,0.7,1118.3432,M,-41.632,M,00,0004*4D
$GPGGA,073622.50,3803.2852582,N,10613.2430141,E,4,23,0.7,1118.3417,M,-41.632,M,00,0004*45
$GPGGA,073622.55,3803.2852604,N,10613.2429574,E,4,23,0.7,1118.3485,M,-41.632,M,00,0004*4C
$GPGGA,073622.60,3803.2852629,N,10613.2429024,E,4,23,0.7,1118.3438,M,-41.632,M,00,0004*43
$GPGGA,073622.65,3803.2852654,N,10613.2428468,E,4,23,0.7,1118.3396,M,-41.632,M,00,0004*42
$GPGGA,073622.70,3803.2852645,N,10613.2427894,E,4,23,0.7,1118.3482,M,-41.632,M,00,0004*44
